{
  "estacao-jabaquara": {
    "lines": [
      {
        "id": "linha-1-azul",
        "stop": 0
      }
    ],
    "location": {
      "address": {
        "latitude": "-23.645754",
        "longitude": "-46.642084"
      }
    },
    "title": "Jabaquara",
    "schedule": [
      {
        "period": "04h40 às 00h06",
        "title": "Domingo A Sexta"
      },
      {
        "period": "04h40 às 01h00",
        "title": "Sábados"
      }
    ]
  },
  "estacao-conceicao": {
    "lines": [
      {
        "id": "linha-1-azul",
        "stop": 1
      }
    ],
    "location": {
      "address": {
        "latitude": "-23.63537",
        "longitude": "-46.64146"
      }
    },
    "title": "Conceição",
    "schedule": [
      {
        "period": "04h40 às 00h08",
        "title": "Domingo A Sexta"
      },
      {
        "period": "04h40 às 01h00",
        "title": "Sábados"
      }
    ]
  },
  "estacao-sao-judas": {
    "lines": [
      {
        "id": "linha-1-azul",
        "stop": 2
      }
    ],
    "location": {
      "address": {
        "latitude": "-23.62558",
        "longitude": "-46.640778"
      }
    },
    "title": "São Judas",
    "schedule": [
      {
        "period": "04h40 às 00h10",
        "title": "Domingo A Sexta"
      },
      {
        "period": "04h40 às 01h00",
        "title": "Sábados"
      }
    ]
  },
  "estacao-saude": {
    "lines": [
      {
        "id": "linha-1-azul",
        "stop": 3
      }
    ],
    "location": {
      "address": {
        "latitude": "-23.619207",
        "longitude": "-46.639354"
      }
    },
    "title": "Saúde",
    "schedule": [
      {
        "period": "04h40 às 00h12",
        "title": "Domingo A Sexta"
      },
      {
        "period": "04h40 às 01h00",
        "title": "Sábados"
      }
    ]
  },
  "estacao-praca-arvore": {
    "lines": [
      {
        "id": "linha-1-azul",
        "stop": 4
      }
    ],
    "location": {
      "address": {
        "latitude": "-23.61069",
        "longitude": "-46.637852"
      }
    },
    "title": "Praça Da árvore",
    "schedule": [
      {
        "period": "04h40 às 00h14",
        "title": "Domingo A Sexta"
      },
      {
        "period": "04h40 às 01h00",
        "title": "Sábados"
      }
    ]
  },
  "estacao-santa-cruz": {
    "lines": [
      {
        "id": "linha-1-azul",
        "stop": 5
      }
    ],
    "location": {
      "address": {
        "latitude": "-23.599225",
        "longitude": "-46.636659"
      }
    },
    "title": "Santa Cruz",
    "schedule": [
      {
        "period": "04h40 às 00h16",
        "title": "Domingo A Sexta"
      },
      {
        "period": "04h40 às 01h00",
        "title": "Sábados"
      }
    ]
  },
  "estacao-vila-mariana": {
    "lines": [
      {
        "id": "linha-1-azul",
        "stop": 6
      }
    ],
    "location": {
      "address": {
        "latitude": "-23.589541",
        "longitude": "-46.634701"
      }
    },
    "title": "Vila Mariana",
    "schedule": [
      {
        "period": "04h40 às 00h18",
        "title": "Domingo A Sexta"
      },
      {
        "period": "04h40 às 01h00",
        "title": "Sábados"
      }
    ]
  },
  "estacao-ana-rosa": {
    "lines": [
      {
        "id": "linha-1-azul",
        "stop": 7
      },
      {
        "id": "linha-2-verde",
        "stop": 6
      }
    ],
    "location": {
      "address": {
        "latitude": "-23.581376",
        "longitude": "-46.638388"
      }
    },
    "title": "Ana Rosa",
    "schedule": [
      {
        "period": "04h40 às 00h20",
        "title": "Domingo A Sexta"
      },
      {
        "period": "04h40 às 01h00",
        "title": "Sábados"
      }
    ]
  },
  "estacao-paraiso": {
    "lines": [
      {
        "id": "linha-1-azul",
        "stop": 8
      },
      {
        "id": "linha-2-verde",
        "stop": 7
      }
    ],
    "location": {
      "address": {
        "latitude": "-23.575029",
        "longitude": "-46.64075"
      }
    },
    "title": "Paraíso",
    "schedule": [
      {
        "period": "04h40 às 00h22",
        "title": "Domingo A Sexta"
      },
      {
        "period": "04h40 às 01h00",
        "title": "Sábados"
      }
    ]
  },
  "estacao-vergueiro": {
    "lines": [
      {
        "id": "linha-1-azul",
        "stop": 9
      }
    ],
    "location": {
      "address": {
        "latitude": "-23.568994",
        "longitude": "-46.639858"
      }
    },
    "title": "Vergueiro",
    "schedule": [
      {
        "period": "04h40 às 00h24",
        "title": "Domingo A Sexta"
      },
      {
        "period": "04h40 às 01h00",
        "title": "Sábados"
      }
    ]
  },
  "estacao-sao-joaquim": {
    "lines": [
      {
        "id": "linha-1-azul",
        "stop": 10
      }
    ],
    "location": {
      "address": {
        "latitude": "-23.561912",
        "longitude": "-46.638652"
      }
    },
    "title": "São Joaquim",
    "schedule": [
      {
        "period": "04h40 às 00h26",
        "title": "Domingo A Sexta"
      },
      {
        "period": "04h40 às 01h00",
        "title": "Sábados"
      }
    ]
  },
  "estacao-liberdade": {
    "lines": [
      {
        "id": "linha-1-azul",
        "stop": 11
      }
    ],
    "location": {
      "address": {
        "latitude": "-23.555535",
        "longitude": "-46.635956"
      }
    },
    "title": "Liberdade",
    "schedule": [
      {
        "period": "04h40 às 00h28",
        "title": "Domingo A Sexta"
      },
      {
        "period": "04h40 às 01h00",
        "title": "Sábados"
      }
    ]
  },
  "estacao-se": {
    "lines": [
      {
        "id": "linha-1-azul",
        "stop": 12
      },
      {
        "id": "linha-3-vermelha",
        "stop": 12
      }
    ],
    "location": {
      "address": {
        "latitude": "-23.549918",
        "longitude": "-46.633204"
      }
    },
    "title": "Sé",
    "schedule": [
      {
        "period": "04h40 às 00h29",
        "title": "Domingo A Sexta"
      },
      {
        "period": "04h40 às 01h00",
        "title": "Sábados"
      }
    ]
  },
  "estacao-sao-bento": {
    "lines": [
      {
        "id": "linha-1-azul",
        "stop": 13
      }
    ],
    "location": {
      "address": {
        "latitude": "-23.54469",
        "longitude": "-46.633263"
      }
    },
    "title": "São Bento",
    "schedule": [
      {
        "period": "04h40 às 00h32",
        "title": "Domingo A Sexta"
      },
      {
        "period": "04h40 às 01h00",
        "title": "Sábados"
      }
    ]
  },
  "estacao-luz": {
    "lines": [
      {
        "id": "linha-1-azul",
        "stop": 14
      },
      {
        "id": "linha-4-amarela",
        "stop": 0
      }
    ],
    "location": {
      "address": {
        "latitude": "-23.537952",
        "longitude": "-46.633515"
      }
    },
    "title": "Luz",
    "schedule": [
      {
        "period": "04h40 às 00h30",
        "title": "Domingo A Sexta"
      },
      {
        "period": "04h40 às 01h00",
        "title": "Sábados"
      }
    ]
  },
  "estacao-tiradentes": {
    "lines": [
      {
        "id": "linha-1-azul",
        "stop": 15
      }
    ],
    "location": {
      "address": {
        "latitude": "-23.5337729",
        "longitude": "-46.63232"
      }
    },
    "title": "Tiradentes",
    "schedule": [
      {
        "period": "04h40 às 00h28",
        "title": "Domingo A Sexta"
      },
      {
        "period": "04h40 às 01h00",
        "title": "Sábados"
      }
    ]
  },
  "estacao-armenia": {
    "lines": [
      {
        "id": "linha-1-azul",
        "stop": 16
      }
    ],
    "location": {
      "address": {
        "latitude": "-23.5295174",
        "longitude": "-46.6314382"
      }
    },
    "title": "Armênia",
    "schedule": [
      {
        "period": "04h40 às 00h26",
        "title": "Domingo A Sexta"
      },
      {
        "period": "04h40 às 01h00",
        "title": "Sábados"
      }
    ]
  },
  "estacao-portuguesa-tiete": {
    "lines": [
      {
        "id": "linha-1-azul",
        "stop": 17
      }
    ],
    "location": {
      "address": {
        "latitude": "-23.516587",
        "longitude": "-46.625123"
      }
    },
    "title": "Portuguesa - Tietê",
    "schedule": [
      {
        "period": "04h40 às 00h24",
        "title": "Domingo A Sexta"
      },
      {
        "period": "04h40 às 01h00",
        "title": "Sábados"
      }
    ]
  },
  "estacao-carandiru": {
    "lines": [
      {
        "id": "linha-1-azul",
        "stop": 18
      }
    ],
    "location": {
      "address": {
        "latitude": "-23.509654",
        "longitude": "-46.62491"
      }
    },
    "title": "Carandiru",
    "schedule": [
      {
        "period": "04h40 às 00h22",
        "title": "Domingo A Sexta"
      },
      {
        "period": "04h40 às 01h00",
        "title": "Sábados"
      }
    ]
  },
  "estacao-santana": {
    "lines": [
      {
        "id": "linha-1-azul",
        "stop": 19
      }
    ],
    "location": {
      "address": {
        "latitude": "-23.503134",
        "longitude": "-46.623861"
      }
    },
    "title": "Santana",
    "schedule": [
      {
        "period": "04h40 às 00h20",
        "title": "Domingo A Sexta"
      },
      {
        "period": "04h40 às 01h00",
        "title": "Sábados"
      }
    ]
  },
  "estacao-jardim-sao-paulo": {
    "lines": [
      {
        "id": "linha-1-azul",
        "stop": 20
      }
    ],
    "location": {
      "address": {
        "latitude": "-23.492233",
        "longitude": "-46.616687"
      }
    },
    "title": "Jardim São Paulo - Ayrton Senna",
    "schedule": [
      {
        "period": "04h40 às 00h18",
        "title": "Domingo A Sexta"
      },
      {
        "period": "04h40 às 01h00",
        "title": "Sábados"
      }
    ]
  },
  "estacao-parada-inglesa": {
    "lines": [
      {
        "id": "linha-1-azul",
        "stop": 21
      }
    ],
    "location": {
      "address": {
        "latitude": "-23.487111",
        "longitude": "-46.608877"
      }
    },
    "title": "Parada Inglesa",
    "schedule": [
      {
        "period": "04h40 às 00h16",
        "title": "Domingo A Sexta"
      },
      {
        "period": "04h40 às 01h00",
        "title": "Sábados"
      }
    ]
  },
  "estacao-tucuruvi": {
    "lines": [
      {
        "id": "linha-1-azul",
        "stop": 22
      }
    ],
    "location": {
      "address": {
        "latitude": "-23.480048",
        "longitude": "-46.603211"
      }
    },
    "title": "Tucuruvi",
    "schedule": [
      {
        "period": "04h40 às 00h14",
        "title": "Domingo A Sexta"
      },
      {
        "period": "04h40 às 01h00",
        "title": "Sábados"
      }
    ]
  },
  "estacao-vila-prudente": {
    "lines": [
      {
        "id": "linha-2-verde",
        "stop": 0
      }
    ],
    "location": {
      "address": {
        "latitude": "-23.584695",
        "longitude": "-46.58153"
      }
    },
    "title": "Vila Prudente",
    "schedule": [
      {
        "period": "04h40 às 00h07",
        "title": "Domingo A Sexta"
      },
      {
        "period": "04h40 às 01h00",
        "title": "Sábados"
      }
    ]
  },
  "estacao-tamanduatei": {
    "lines": [
      {
        "id": "linha-2-verde",
        "stop": 1
      }
    ],
    "location": {
      "address": {
        "latitude": "-23.592984",
        "longitude": "-46.589602"
      }
    },
    "title": "Tamanduateí",
    "schedule": [
      {
        "period": "04h40 às 00h09",
        "title": "Domingo A Sexta"
      },
      {
        "period": "04h40 às 01h00",
        "title": "Sábados"
      }
    ]
  },
  "estacao-sacoma": {
    "lines": [
      {
        "id": "linha-2-verde",
        "stop": 2
      }
    ],
    "location": {
      "address": {
        "latitude": "-23.602456",
        "longitude": "-46.602319"
      }
    },
    "title": "Sacomã",
    "schedule": [
      {
        "period": "04h40 às 00h11",
        "title": "Domingo A Sexta"
      },
      {
        "period": "04h40 às 01h00",
        "title": "Sábados"
      }
    ]
  },
  "estacao-alto-ipiranga": {
    "lines": [
      {
        "id": "linha-2-verde",
        "stop": 3
      }
    ],
    "location": {
      "address": {
        "latitude": "-23.602437",
        "longitude": "-46.612713"
      }
    },
    "title": "Alto Do Ipiranga",
    "schedule": [
      {
        "period": "04h40 às 00h13",
        "title": "Domingo A Sexta"
      },
      {
        "period": "04h40 às 01h00",
        "title": "Sábados"
      }
    ]
  },
  "estacao-santos-imigrantes": {
    "lines": [
      {
        "id": "linha-2-verde",
        "stop": 4
      }
    ],
    "location": {
      "address": {
        "latitude": "-23.595716",
        "longitude": "-46.620723"
      }
    },
    "title": "Santos - Imigrantes",
    "schedule": [
      {
        "period": "04h40 às 0h16",
        "title": "Domingo A Sexta"
      },
      {
        "period": "04h40 às 01h00",
        "title": "Sábados"
      }
    ]
  },
  "estacao-chacara-klabin": {
    "lines": [
      {
        "id": "linha-2-verde",
        "stop": 5
      }
    ],
    "location": {
      "address": {
        "latitude": "-23.592527",
        "longitude": "-46.630193"
      }
    },
    "title": "Chácara Klabin",
    "schedule": [
      {
        "period": "04h40 às 00h18",
        "title": "Domingo A Sexta"
      },
      {
        "period": "04h40 às 01h00",
        "title": "Sábados"
      }
    ]
  },
  "estacao-brigadeiro": {
    "lines": [
      {
        "id": "linha-2-verde",
        "stop": 8
      }
    ],
    "location": {
      "address": {
        "latitude": "-23.568241",
        "longitude": "-46.647981"
      }
    },
    "title": "Brigadeiro",
    "schedule": [
      {
        "period": "04h40 às 00h24",
        "title": "Domingo A Sexta"
      },
      {
        "period": "04h40 às 01h00",
        "title": "Sábados"
      }
    ]
  },
  "estacao-trianon-masp": {
    "lines": [
      {
        "id": "linha-2-verde",
        "stop": 9
      }
    ],
    "location": {
      "address": {
        "latitude": "-23.5619028",
        "longitude": "-46.6468096"
      }
    },
    "title": "Trianon - Masp",
    "schedule": [
      {
        "period": "04h40 às 0h22",
        "title": "Domingo A Sexta"
      },
      {
        "period": "04h40 às 01h00",
        "title": "Sábados"
      }
    ]
  },
  "estacao-consolacao": {
    "lines": [
      {
        "id": "linha-2-verde",
        "stop": 10
      }
    ],
    "location": {
      "address": {
        "latitude": "-23.558559",
        "longitude": "-46.659569"
      }
    },
    "title": "Consolação",
    "schedule": [
      {
        "period": "04h40 às 00h20",
        "title": "Domingo A Sexta"
      },
      {
        "period": "04h40 às 01h00",
        "title": "Sábados"
      }
    ]
  },
  "estacao-clinicas": {
    "lines": [
      {
        "id": "linha-2-verde",
        "stop": 11
      }
    ],
    "location": {
      "address": {
        "latitude": "-23.555581",
        "longitude": "-46.671949"
      }
    },
    "title": "Clínicas",
    "schedule": [
      {
        "period": "04h40 às 00h18",
        "title": "Domingo A Sexta"
      },
      {
        "period": "04h40 às 01h00",
        "title": "Sábados"
      }
    ]
  },
  "estacao-sumare": {
    "lines": [
      {
        "id": "linha-2-verde",
        "stop": 12
      }
    ],
    "location": {
      "address": {
        "latitude": "-23.5506341",
        "longitude": "-46.6782604"
      }
    },
    "title": "S. N. Sra. De Fátima - Sumaré",
    "schedule": [
      {
        "period": "04h40 às 0h16",
        "title": "Domingo A Sexta"
      },
      {
        "period": "04h40 às 01h00",
        "title": "Sábados"
      }
    ]
  },
  "estacao-vila-madalena": {
    "lines": [
      {
        "id": "linha-2-verde",
        "stop": 13
      }
    ],
    "location": {
      "address": {
        "latitude": "-23.54672",
        "longitude": "-46.690738"
      }
    },
    "title": "Vila Madalena",
    "schedule": [
      {
        "period": "04h40 às 0h14",
        "title": "Domingo A Sexta"
      },
      {
        "period": "04h40 às 01h00",
        "title": "Sábados"
      }
    ]
  },
  "estacao-itaquera": {
    "lines": [
      {
        "id": "linha-3-vermelha",
        "stop": 0
      }
    ],
    "location": {
      "address": {
        "latitude": "-23.541854",
        "longitude": "-46.470514"
      }
    },
    "title": "Corinthians - Itaquera",
    "schedule": [
      {
        "period": "04h40 às 0h19",
        "title": "Domingo A Sexta"
      },
      {
        "period": "04h40 às 01h00",
        "title": "Sábados"
      }
    ]
  },
  "estacao-artur-alvim": {
    "lines": [
      {
        "id": "linha-3-vermelha",
        "stop": 1
      }
    ],
    "location": {
      "address": {
        "latitude": "-23.541022",
        "longitude": "-46.4847"
      }
    },
    "title": "Artur Alvim",
    "schedule": [
      {
        "period": "04h40 às 0h21",
        "title": "Domingo A Sexta"
      },
      {
        "period": "04h40 às 01h00",
        "title": "Sábados"
      }
    ]
  },
  "estacao-patriarca": {
    "lines": [
      {
        "id": "linha-3-vermelha",
        "stop": 2
      }
    ],
    "location": {
      "address": {
        "latitude": "-23.531079",
        "longitude": "-46.501715"
      }
    },
    "title": "Patriarca",
    "schedule": [
      {
        "period": "04h40 às 0h23",
        "title": "Domingo A Sexta"
      },
      {
        "period": "04h40 às 01h00",
        "title": "Sábados"
      }
    ]
  },
  "estacao-guilhermina-esperanca": {
    "lines": [
      {
        "id": "linha-3-vermelha",
        "stop": 3
      }
    ],
    "location": {
      "address": {
        "latitude": "-23.529195",
        "longitude": "-46.516734"
      }
    },
    "title": "Guilhermina - Esperança",
    "schedule": [
      {
        "period": "04h40 às 0h25",
        "title": "Domingo A Sexta"
      },
      {
        "period": "04h40 às 01h00",
        "title": "Sábados"
      }
    ]
  },
  "estacao-vila-matilde": {
    "lines": [
      {
        "id": "linha-3-vermelha",
        "stop": 4
      }
    ],
    "location": {
      "address": {
        "latitude": "-23.531903",
        "longitude": "-46.530539"
      }
    },
    "title": "Vila Matilde",
    "schedule": [
      {
        "period": "04h40 às 00h27",
        "title": "Domingo A Sexta"
      },
      {
        "period": "04h40 às 01h00",
        "title": "Sábados"
      }
    ]
  },
  "estacao-penha": {
    "lines": [
      {
        "id": "linha-3-vermelha",
        "stop": 5
      }
    ],
    "location": {
      "address": {
        "latitude": "-23.532992",
        "longitude": "-46.542828"
      }
    },
    "title": "Penha",
    "schedule": [
      {
        "period": "04h40 às 00h29",
        "title": "Domingo A Sexta"
      },
      {
        "period": "04h40 às 01h00",
        "title": "Sábados"
      }
    ]
  },
  "estacao-carrao": {
    "lines": [
      {
        "id": "linha-3-vermelha",
        "stop": 6
      }
    ],
    "location": {
      "address": {
        "latitude": "-23.538001",
        "longitude": "-46.561886"
      }
    },
    "title": "Carrão",
    "schedule": [
      {
        "period": "04h40 às 0h31",
        "title": "Domingo A Sexta"
      },
      {
        "period": "04h40 às 01h00",
        "title": "Sábados"
      }
    ]
  },
  "estacao-tatuape": {
    "lines": [
      {
        "id": "linha-3-vermelha",
        "stop": 7
      }
    ],
    "location": {
      "address": {
        "latitude": "-23.542064",
        "longitude": "-46.576215"
      }
    },
    "title": "Tatuapé",
    "schedule": [
      {
        "period": "04h40 às 00h33",
        "title": "Domingo A Sexta"
      },
      {
        "period": "04h40 às 01h00",
        "title": "Sábados"
      }
    ]
  },
  "estacao-belem": {
    "lines": [
      {
        "id": "linha-3-vermelha",
        "stop": 8
      }
    ],
    "location": {
      "address": {
        "latitude": "-23.54223",
        "longitude": "-46.589778"
      }
    },
    "title": "Belém",
    "schedule": [
      {
        "period": "04h40 às 0h35",
        "title": "Domingo A Sexta"
      },
      {
        "period": "04h40 às 01h00",
        "title": "Sábados"
      }
    ]
  },
  "estacao-bresser-mooca": {
    "lines": [
      {
        "id": "linha-3-vermelha",
        "stop": 9
      }
    ],
    "location": {
      "address": {
        "latitude": "-23.546596",
        "longitude": "-46.607323"
      }
    },
    "title": "Bresser - Mooca",
    "schedule": [
      {
        "period": "04h40 às 0h35",
        "title": "Domingo A Sexta"
      },
      {
        "period": "04h40 às 01h00",
        "title": "Sábados"
      }
    ]
  },
  "estacao-bras": {
    "lines": [
      {
        "id": "linha-3-vermelha",
        "stop": 10
      }
    ],
    "location": {
      "address": {
        "latitude": "-23.547686",
        "longitude": "-46.615285"
      }
    },
    "title": "Brás",
    "schedule": [
      {
        "period": "04h40 às 0h33",
        "title": "Domingo A Sexta"
      },
      {
        "period": "04h40 às 01h00",
        "title": "Sábados"
      }
    ]
  },
  "estacao-pedro-II": {
    "lines": [
      {
        "id": "linha-3-vermelha",
        "stop": 11
      }
    ],
    "location": {
      "address": {
        "latitude": "-23.550022",
        "longitude": "-46.625727"
      }
    },
    "title": "Pedro Ii",
    "schedule": [
      {
        "period": "04h40 às 00h31",
        "title": "Domingo A Sexta"
      },
      {
        "period": "04h40 às 01h00",
        "title": "Sábados"
      }
    ]
  },
  "estacao-anhangabau": {
    "lines": [
      {
        "id": "linha-3-vermelha",
        "stop": 13
      }
    ],
    "location": {
      "address": {
        "latitude": "-23.547916",
        "longitude": "-46.639324"
      }
    },
    "title": "Anhangabaú",
    "schedule": [
      {
        "period": "04h40 às 0h27",
        "title": "Domingo A Sexta"
      },
      {
        "period": "04h40 às 01h00",
        "title": "Sábados"
      }
    ]
  },
  "estacao-republica": {
    "lines": [
      {
        "id": "linha-3-vermelha",
        "stop": 14
      },
      {
        "id": "linha-4-amarela",
        "stop": 1
      }
    ],
    "location": {
      "address": {
        "latitude": "-23.541929",
        "longitude": "-46.642249"
      }
    },
    "title": "República",
    "schedule": [
      {
        "period": "04h40 às 00h25",
        "title": "Domingo A Sexta"
      },
      {
        "period": "04h40 às 01h00",
        "title": "Sábados"
      }
    ]
  },
  "estacao-santa-cecilia": {
    "lines": [
      {
        "id": "linha-3-vermelha",
        "stop": 15
      }
    ],
    "location": {
      "address": {
        "latitude": "-23.538694",
        "longitude": "-46.649732"
      }
    },
    "title": "Santa Cecília",
    "schedule": [
      {
        "period": "04h40 às 00h23",
        "title": "Domingo A Sexta"
      },
      {
        "period": "04h40 às 01h00",
        "title": "Sábados"
      }
    ]
  },
  "estacao-marechal-deodoro": {
    "lines": [
      {
        "id": "linha-3-vermelha",
        "stop": 16
      }
    ],
    "location": {
      "address": {
        "latitude": "-23.533838",
        "longitude": "-46.655863"
      }
    },
    "title": "Marechal Deodoro",
    "schedule": [
      {
        "period": "04h40 às 0h21",
        "title": "Domingo A Sexta"
      },
      {
        "period": "04h40 às 01h00",
        "title": "Sábados"
      }
    ]
  },
  "estacao-barra-funda": {
    "lines": [
      {
        "id": "linha-3-vermelha",
        "stop": 17
      }
    ],
    "location": {
      "address": {
        "latitude": "-23.525714",
        "longitude": "-46.666782"
      }
    },
    "title": "Palmeiras - Barra Funda",
    "schedule": [
      {
        "period": "04h40 às 0h19",
        "title": "Domingo A Sexta"
      },
      {
        "period": "04h40 às 01h00",
        "title": "Sábados"
      }
    ]
  },
  "estacao-paulista": {
    "lines": [
      {
        "id": "linha-4-amarela",
        "stop": 2
      }
    ],
    "location": {
      "address": {
        "latitude": "-23.555391",
        "longitude": "-46.662713"
      }
    },
    "title": "Paulista",
    "schedule": [
      {
        "period": "04h40 às 00h00",
        "title": "Domingo A Sexta"
      },
      {
        "period": "04h40 às 01h00",
        "title": "Sábados"
      }
    ]
  },
  "estacao-faria-lima": {
    "lines": [
      {
        "id": "linha-4-amarela",
        "stop": 3
      }
    ],
    "location": {
      "address": {
        "latitude": "-23.566972",
        "longitude": "-46.693817"
      }
    },
    "title": "Faria Lima",
    "schedule": [
      {
        "period": "04h40 às 00h00",
        "title": "Domingo A Sexta"
      },
      {
        "period": "04h40 às 01h00",
        "title": "Sábados"
      }
    ]
  },
  "estacao-pinheiros": {
    "lines": [
      {
        "id": "linha-4-amarela",
        "stop": 4
      }
    ],
    "location": {
      "address": {
        "latitude": "-23.566499",
        "longitude": "-46.702082"
      }
    },
    "title": "Pinheiros",
    "schedule": [
      {
        "period": "04h40 às 00h00",
        "title": "Domingo A Sexta"
      },
      {
        "period": "04h40 às 01h00",
        "title": "Sábados"
      }
    ]
  },
  "estacao-butanta": {
    "lines": [
      {
        "id": "linha-4-amarela",
        "stop": 5
      }
    ],
    "location": {
      "address": {
        "latitude": "-23.571563",
        "longitude": "-46.708667"
      }
    },
    "title": "Butantã",
    "schedule": [
      {
        "period": "04h40 às 00h00",
        "title": "Domingo A Sexta"
      },
      {
        "period": "04h40 às 01h00",
        "title": "Sábados"
      }
    ]
  },
  "estacao-capao-redondo": {
    "lines": [
      {
        "id": "linha-5-lilas",
        "stop": 0
      }
    ],
    "location": {
      "address": {
        "latitude": "-23.659955",
        "longitude": "-46.768691"
      }
    },
    "title": "Capão Redondo",
    "schedule": [
      {
        "period": "04h40 às 00h10",
        "title": "Domingo A Sábado"
      }
    ]
  },
  "estacao-campo-limpo": {
    "lines": [
      {
        "id": "linha-5-lilas",
        "stop": 1
      }
    ],
    "location": {
      "address": {
        "latitude": "-23.64897",
        "longitude": "-46.758831"
      }
    },
    "title": "Campo Limpo",
    "schedule": [
      {
        "period": "04h40 às 00h10",
        "title": "Domingo A Sábado"
      }
    ]
  },
  "estacao-vila-belezas": {
    "lines": [
      {
        "id": "linha-5-lilas",
        "stop": 2
      }
    ],
    "location": {
      "address": {
        "latitude": "-23.640191",
        "longitude": "-46.745659"
      }
    },
    "title": "Vila Das Belezas",
    "schedule": [
      {
        "period": "04h40 às 00h10",
        "title": "Domingo A Sábado"
      }
    ]
  },
  "estacao-giovanni-gronchi": {
    "lines": [
      {
        "id": "linha-5-lilas",
        "stop": 3
      }
    ],
    "location": {
      "address": {
        "latitude": "-23.643901",
        "longitude": "-46.734486"
      }
    },
    "title": "Giovanni Gronchi",
    "schedule": [
      {
        "period": "04h40 às 00h10",
        "title": "Domingo A Sábado"
      }
    ]
  },
  "estacao-santo-amaro": {
    "lines": [
      {
        "id": "linha-5-lilas",
        "stop": 4
      }
    ],
    "location": {
      "address": {
        "latitude": "-23.655916",
        "longitude": "-46.719686"
      }
    },
    "title": "Santo Amaro",
    "schedule": [
      {
        "period": "04h40 às 00h10",
        "title": "Domingo A Sábado"
      }
    ]
  },
  "estacao-largo-treze": {
    "lines": [
      {
        "id": "linha-5-lilas",
        "stop": 5
      }
    ],
    "location": {
      "address": {
        "latitude": "-23.65453",
        "longitude": "-46.710536"
      }
    },
    "title": "Largo Treze",
    "schedule": [
      {
        "period": "04h40 às 00h10",
        "title": "Domingo A Sábado"
      }
    ]
  }
}