{
  "estacao-jabaquara": {
    "lines": [
      "linha-1-azul"
    ],
    "location": {
      "address": "Term. Jabaquara, São Paulo, Brazil",
      "latitude": -23.647066,
      "longitude": -46.63954
    }
  },
  "estacao-conceicao": {
    "lines": [
      "linha-1-azul"
    ],
    "location": {
      "address": "Conceição, Vila Guarani, Sao Paulo - São Paulo, Brazil",
      "latitude": -23.636214,
      "longitude": -46.641141
    }
  },
  "estacao-sao-judas": {
    "lines": [
      "linha-1-azul"
    ],
    "location": {
      "address": "São Judas, São Paulo, Brazil",
      "latitude": -23.6244547,
      "longitude": -46.6379525
    }
  },
  "estacao-saude": {
    "lines": [
      "linha-1-azul"
    ],
    "location": {
      "address": "Saúde, Sao Paulo - São Paulo, Brazil",
      "latitude": -23.617243,
      "longitude": -46.6343336
    }
  },
  "estacao-praca-arvore": {
    "lines": [
      "linha-1-azul"
    ],
    "location": {
      "address": "Praça Da Árvore, São Paulo, Brazil",
      "latitude": -23.61069,
      "longitude": -46.637852
    }
  },
  "estacao-santa-cruz": {
    "lines": [
      "linha-1-azul"
    ],
    "location": {
      "address": "Santa Cruz, São Paulo, Brazil",
      "latitude": -23.599225,
      "longitude": -46.63665899999999
    }
  },
  "estacao-vila-mariana": {
    "lines": [
      "linha-1-azul"
    ],
    "location": {
      "address": "Vila Mariana, São Paulo, Brazil",
      "latitude": -23.5870563,
      "longitude": -46.63574370000001
    }
  },
  "estacao-ana-rosa": {
    "lines": [
      "linha-1-azul",
      "linha-2-verde"
    ],
    "location": {
      "address": "Ana Rosa, São Paulo, Brazil",
      "latitude": -23.581376,
      "longitude": -46.638388
    }
  },
  "estacao-paraiso": {
    "lines": [
      "linha-1-azul",
      "linha-2-verde"
    ],
    "location": {
      "address": "Estação Paraíso, São Paulo, Brazil",
      "latitude": -23.575922,
      "longitude": -46.64141
    }
  },
  "estacao-vergueiro": {
    "lines": [
      "linha-1-azul"
    ],
    "location": {
      "address": "Vergueiro, São Paulo, Brazil",
      "latitude": -23.568994,
      "longitude": -46.639858
    }
  },
  "estacao-sao-joaquim": {
    "lines": [
      "linha-1-azul"
    ],
    "location": {
      "address": "São Joaquim, São Paulo, Brazil",
      "latitude": -22.8,
      "longitude": -47.766667
    }
  },
  "estacao-liberdade": {
    "lines": [
      "linha-1-azul"
    ],
    "location": {
      "address": "Estação Liberdade do Metro, São Paulo, Brazil",
      "latitude": -23.5555348,
      "longitude": -46.6359564
    }
  },
  "estacao-se": {
    "lines": [
      "linha-1-azul",
      "linha-3-vermelha"
    ],
    "location": {
      "address": "Praça da Sé, Centro, Sao Paulo - São Paulo, Brazil",
      "latitude": -23.5492908,
      "longitude": -46.6334714
    }
  },
  "estacao-sao-bento": {
    "lines": [
      "linha-1-azul"
    ],
    "location": {
      "address": "São Bento, São Paulo, Brazil",
      "latitude": -23.4346555,
      "longitude": -46.2494721
    }
  },
  "estacao-luz": {
    "lines": [
      "linha-1-azul",
      "linha-4-amarela"
    ],
    "location": {
      "address": "Estação Luz do Metrô - Avenida Cásper Líbero, Luz, Sao Paulo - São Paulo, Brazil",
      "latitude": -23.538548,
      "longitude": -46.6360091
    }
  },
  "estacao-tiradentes": {
    "lines": [
      "linha-1-azul"
    ],
    "location": {
      "address": "Tiradentes, Luz, Sao Paulo - São Paulo, Brazil",
      "latitude": -23.530857,
      "longitude": -46.63195899999999
    }
  },
  "estacao-armenia": {
    "lines": [
      "linha-1-azul"
    ],
    "location": {
      "address": "Armênia, Luz, Sao Paulo - São Paulo, Brazil",
      "latitude": -23.5254296,
      "longitude": -46.62611039999999
    }
  },
  "estacao-portuguesa-tiete": {
    "lines": [
      "linha-1-azul"
    ],
    "location": {
      "address": "Portuguesa-tietê, Santana, Sao Paulo - São Paulo, Brazil",
      "latitude": -23.516587,
      "longitude": -46.62512299999999
    }
  },
  "estacao-carandiru": {
    "lines": [
      "linha-1-azul"
    ],
    "location": {
      "address": "Carandiru, Santana, Sao Paulo - São Paulo, Brazil",
      "latitude": -23.509654,
      "longitude": -46.62491
    }
  },
  "estacao-santana": {
    "lines": [
      "linha-1-azul"
    ],
    "location": {
      "address": "Estação Santana - Rua Doutor César, Santana, Sao Paulo - São Paulo, Brazil",
      "latitude": -23.5538062,
      "longitude": -46.2139489
    }
  },
  "estacao-jardim-sao-paulo": {
    "lines": [
      "linha-1-azul"
    ],
    "location": {
      "address": "Jardim São Paulo-ayrton Senna, Jardim São Paulo, Sao Paulo - São Paulo, Brazil",
      "latitude": -23.492233,
      "longitude": -46.616687
    }
  },
  "estacao-parada-inglesa": {
    "lines": [
      "linha-1-azul"
    ],
    "location": {
      "address": "Parada Inglesa, Sao Paulo - São Paulo, Brazil",
      "latitude": -23.4877778,
      "longitude": -46.6080556
    }
  },
  "estacao-tucuruvi": {
    "lines": [
      "linha-1-azul"
    ],
    "location": {
      "address": "Tucuruvi, Vila Gustavo, Sao Paulo - São Paulo, Brazil",
      "latitude": -23.480048,
      "longitude": -46.60321099999999
    }
  },
  "estacao-vila-prudente": {
    "lines": [
      "linha-2-verde"
    ],
    "location": {
      "address": "Vila Prudente, Sao Paulo - São Paulo, Brazil",
      "latitude": -23.5797895,
      "longitude": -46.5812872
    }
  },
  "estacao-tamanduatei": {
    "lines": [
      "linha-2-verde"
    ],
    "location": {
      "address": "Tamanduatei, Vila Independência, Sao Paulo - São Paulo, Brazil",
      "latitude": -23.594892,
      "longitude": -46.588078
    }
  },
  "estacao-sacoma": {
    "lines": [
      "linha-2-verde"
    ],
    "location": {
      "address": "Estação Sacomâ de Metrô - Rua Greenfeld, Sacomã, Sao Paulo - São Paulo, Brazil",
      "latitude": -23.6012964,
      "longitude": -46.6022157
    }
  },
  "estacao-alto-ipiranga": {
    "lines": [
      "linha-2-verde"
    ],
    "location": {
      "address": "Alto Do Ipiranga, Vila Dom Pedro I, Sao Paulo - São Paulo, Brazil",
      "latitude": -23.602166,
      "longitude": -46.612606
    }
  },
  "estacao-santos-imigrantes": {
    "lines": [
      "linha-2-verde"
    ],
    "location": {
      "address": "Santos-imigrantes, Vila Firmiano Pinto, Sao Paulo - São Paulo, Brazil",
      "latitude": -23.595716,
      "longitude": -46.620723
    }
  },
  "estacao-chacara-klabin": {
    "lines": [
      "linha-2-verde"
    ],
    "location": {
      "address": "Chácara Klabin, Jardim Vila Mariana, Sao Paulo - São Paulo, Brazil",
      "latitude": -23.592527,
      "longitude": -46.630193
    }
  },
  "estacao-brigadeiro": {
    "lines": [
      "linha-2-verde"
    ],
    "location": {
      "address": "Estação Brigadeiro de Metro, São Paulo, Brazil",
      "latitude": -23.568277,
      "longitude": -46.648152
    }
  },
  "estacao-trianon-masp": {
    "lines": [
      "linha-2-verde"
    ],
    "location": {
      "address": "Trianon-masp, São Paulo, Brazil",
      "latitude": -23.562506,
      "longitude": -46.65516299999999
    }
  },
  "estacao-consolacao": {
    "lines": [
      "linha-2-verde"
    ],
    "location": {
      "address": "Consolação, Consolacao, Sao Paulo - São Paulo, Brazil",
      "latitude": -23.556094,
      "longitude": -46.662443
    }
  },
  "estacao-clinicas": {
    "lines": [
      "linha-2-verde"
    ],
    "location": {
      "address": "Estação das Clinicas, São Paulo, Brazil",
      "latitude": -23.55419,
      "longitude": -46.670723
    }
  },
  "estacao-sumare": {
    "lines": [
      "linha-2-verde"
    ],
    "location": {
      "address": "Metro Sumare, São Paulo, Brazil",
      "latitude": -23.5506341,
      "longitude": -46.6782604
    }
  },
  "estacao-vila-madalena": {
    "lines": [
      "linha-2-verde"
    ],
    "location": {
      "address": "Vila Madalena, São Paulo, Brazil",
      "latitude": -23.5452786,
      "longitude": -46.7019289
    }
  },
  "estacao-itaquera": {
    "lines": [
      "linha-3-vermelha"
    ],
    "location": {
      "address": "Corinthians-itaquera, Cidade Antonio Estevão de Carvalho, Sao Paulo - São Paulo, Brazil",
      "latitude": -23.541854,
      "longitude": -46.470514
    }
  },
  "estacao-artur-alvim": {
    "lines": [
      "linha-3-vermelha"
    ],
    "location": {
      "address": "Artur Alvim, Cidade Antonio Estevão de Carvalho, Sao Paulo - São Paulo, Brazil",
      "latitude": -23.540491,
      "longitude": -46.484316
    }
  },
  "estacao-patriarca": {
    "lines": [
      "linha-3-vermelha"
    ],
    "location": {
      "address": "Patriarca, São Paulo, Brazil",
      "latitude": -23.531079,
      "longitude": -46.501715
    }
  },
  "estacao-guilhermina-esperanca": {
    "lines": [
      "linha-3-vermelha"
    ],
    "location": {
      "address": "Estação Guilhermina - Esperança, São Paulo, Brazil",
      "latitude": -23.5296917,
      "longitude": -46.51677129999999
    }
  },
  "estacao-vila-matilde": {
    "lines": [
      "linha-3-vermelha"
    ],
    "location": {
      "address": "Estação Vila Matilde, São Paulo, Brazil",
      "latitude": -23.531903,
      "longitude": -46.530539
    }
  },
  "estacao-penha": {
    "lines": [
      "linha-3-vermelha"
    ],
    "location": {
      "address": "Penha, Penha de Franca, Sao Paulo - São Paulo, Brazil",
      "latitude": -23.533648,
      "longitude": -46.54395
    }
  },
  "estacao-carrao": {
    "lines": [
      "linha-3-vermelha"
    ],
    "location": {
      "address": "Carrão, Tatuapé, Sao Paulo - São Paulo, Brazil",
      "latitude": -23.537601,
      "longitude": -46.563637
    }
  },
  "estacao-tatuape": {
    "lines": [
      "linha-3-vermelha"
    ],
    "location": {
      "address": "Estação Tatuape, São Paulo, Brazil",
      "latitude": -23.540188,
      "longitude": -46.576371
    }
  },
  "estacao-belem": {
    "lines": [
      "linha-3-vermelha"
    ],
    "location": {
      "address": "Metrô Belém - Avenida Alcântara Machado, Belenzinho, Sao Paulo - São Paulo, Brazil",
      "latitude": -23.5480192,
      "longitude": -46.6029175
    }
  },
  "estacao-bresser-mooca": {
    "lines": [
      "linha-3-vermelha"
    ],
    "location": {
      "address": "Bresser-mooca, Brás, Sao Paulo - São Paulo, Brazil",
      "latitude": -23.546596,
      "longitude": -46.607323
    }
  },
  "estacao-bras": {
    "lines": [
      "linha-3-vermelha"
    ],
    "location": {
      "address": "Bras, Brás, Sao Paulo - São Paulo, Brazil",
      "latitude": -23.544917,
      "longitude": -46.616052
    }
  },
  "estacao-pedro-II": {
    "lines": [
      "linha-3-vermelha"
    ],
    "location": {
      "address": "Pedro II, São Paulo, Brazil",
      "latitude": -23.549809,
      "longitude": -46.625474
    }
  },
  "estacao-anhangabau": {
    "lines": [
      "linha-3-vermelha"
    ],
    "location": {
      "address": "Anhangabaú, Consolacao, Sao Paulo - São Paulo, Brazil",
      "latitude": -23.547916,
      "longitude": -46.63932399999999
    }
  },
  "estacao-republica": {
    "lines": [
      "linha-3-vermelha",
      "linha-4-amarela"
    ],
    "location": {
      "address": "República, Sao Paulo - São Paulo, Brazil",
      "latitude": -23.5430556,
      "longitude": -46.64388890000001
    }
  },
  "estacao-santa-cecilia": {
    "lines": [
      "linha-3-vermelha"
    ],
    "location": {
      "address": "Santa Cecília, São Paulo, Brazil",
      "latitude": -23.5381968,
      "longitude": -46.6572575
    }
  },
  "estacao-marechal-deodoro": {
    "lines": [
      "linha-3-vermelha"
    ],
    "location": {
      "address": "Marechal Deodoro, São Paulo, Brazil",
      "latitude": -23.535048,
      "longitude": -46.654522
    }
  },
  "estacao-barra-funda": {
    "lines": [
      "linha-3-vermelha"
    ],
    "location": {
      "address": "Barra Funda, São Paulo, Brazil",
      "latitude": -23.5271139,
      "longitude": -46.6596712
    }
  },
  "estacao-paulista": {
    "lines": [
      "linha-4-amarela"
    ],
    "location": {
      "address": "Estação Paulista do Metro, São Paulo, Brazil",
      "latitude": -23.555038,
      "longitude": -46.6621
    }
  },
  "estacao-faria-lima": {
    "lines": [
      "linha-4-amarela"
    ],
    "location": {
      "address": "Faria Lima, Pinheiros, Sao Paulo - São Paulo, Brazil",
      "latitude": -23.567605,
      "longitude": -46.69279299999999
    }
  },
  "estacao-pinheiros": {
    "lines": [
      "linha-4-amarela"
    ],
    "location": {
      "address": "Estação Pinheiros De Metrô - Rua Gilberto Sabino, Pinheiros, Sao Paulo - São Paulo, Brazil",
      "latitude": -23.5659344,
      "longitude": -46.7010872
    }
  },
  "estacao-butanta": {
    "lines": [
      "linha-4-amarela"
    ],
    "location": {
      "address": "Estação Butanta metro - Avenida Vital Brasil, Butantã, Sao Paulo - São Paulo, Brazil",
      "latitude": -23.565,
      "longitude": -46.7069444
    }
  },
  "estacao-capao-redondo": {
    "lines": [
      "linha-5-lilas"
    ],
    "location": {
      "address": "Capão Redondo, Cidade Auxiliadora, Sao Paulo - São Paulo, Brazil",
      "latitude": -23.659955,
      "longitude": -46.768691
    }
  },
  "estacao-campo-limpo": {
    "lines": [
      "linha-5-lilas"
    ],
    "location": {
      "address": "Campo Limpo, Cidade Auxiliadora, Sao Paulo - São Paulo, Brazil",
      "latitude": -23.64897,
      "longitude": -46.758831
    }
  },
  "estacao-vila-belezas": {
    "lines": [
      "linha-5-lilas"
    ],
    "location": {
      "address": "Estação Vila das Belezas - Rua Inácio Preto de Morais, Vila Nova das Belezas, Sao Paulo - São Paulo, Brazil",
      "latitude": -23.6402473,
      "longitude": -46.746074
    }
  },
  "estacao-giovanni-gronchi": {
    "lines": [
      "linha-5-lilas"
    ],
    "location": {
      "address": "Giovanni Gronchi, Jardim Mirante, Sao Paulo - São Paulo, Brazil",
      "latitude": -23.643901,
      "longitude": -46.734486
    }
  },
  "estacao-santo-amaro": {
    "lines": [
      "linha-5-lilas"
    ],
    "location": {
      "address": "Santo Amaro, Jardim São Luís (Zona Oeste), Sao Paulo - São Paulo, Brazil",
      "latitude": -23.6329266,
      "longitude": -46.692674
    }
  },
  "estacao-largo-treze": {
    "lines": [
      "linha-5-lilas"
    ],
    "location": {
      "address": "Largo Treze, Santo Amaro, Sao Paulo - São Paulo, Brazil",
      "latitude": -23.65453,
      "longitude": -46.710536
    }
  }
}